Category,Name,Latitude,Longitude
Competition,UBL Bank,24.9137693,67.1269751
Competition,Standard Chartered Saadiq Bank Pakistan Ltd.,24.9148421,67.1279488
Competition,MCB Bank,24.9127582,67.1258496
Competition,MCB Bank Limited,24.9116632,67.1245927
Competition,Sindh Bank Limited,24.9111807,67.1247657
Competition,Bank Alflah Johar Chawrangi Branch,24.9099041,67.1286726
Competition,BankIslami,24.9132104,67.1262774
Competition,Allied Bank,24.9131131,67.1262359
Competition,Askari Bank,24.9126874,67.1267026
Competition,National Savings Centre,24.9132888,67.1257262
Competition,Habib Metro Bank,24.9128437,67.125925
Competition,NBP Cod Branch,24.9104305,67.1271636
Competition,"Soneri Bank, Gulistan-e-Jauhar Branch",24.9108237,67.1242654
Competition,Soneri Bank,24.9107014,67.124126
Competition,MCB,24.8185482,67.1052549
Competition,HBL ATM,24.8177007,67.1066085
Competition,ASA PAKISTAN LTD K-1 Branch,24.8161058,67.1072069
Competition,NADRA E-Sahulat KIOSK,24.8155483,67.1082875
Competition,Bank Alfalah,24.8856351,67.0621649
Competition,Samba Bank,24.8837442,67.0641209
Competition,MCB Bank Sharfabad Branch,24.8855472,67.0617714
Competition,Habib Bank Limited,24.8839404,67.0642462
Competition,Faysal Bank Barkat,24.8836475,67.0643808
Competition,First Women Bank Ltd. (FWBL) - Sharfabad Branch,24.884412,67.065007
Competition,BankIslami,24.8859182,67.0657182
Competition,Askari Bank Ltd-IBB Sharfabad Branch,24.8824333,67.0631728
Competition,Mayamr Trust Foundation,24.8828548,67.0596215
Competition,Bank AL Habib,24.7928016,67.0679186
Competition,United Bank - UBL,24.8832949,67.0654315
Competition,Sindh Bank,24.8828548,67.0596215
Competition,Allied Bank,24.8823445,67.0635094
Competition,NIB BANK,24.8893252,67.0645115
Competition,Bank Alfalah,24.864389,67.0244216
Competition,National Bank of Pakistan (NBP),24.8576974,67.0234309
Competition,JS Bank,24.8643172,67.0243317
Competition,Habib Bank HBL,24.8602898,67.0241246
Competition,Summit Bank,24.8630103,67.0247313
Competition,National Bank of Pakistan (NBP),24.8632318,67.0226097
Competition,Bank Al Habib Zaibunnisa Street Branch,24.8602427,67.0274759
Competition,MCB Bank Limited,24.8644363,67.0228189
Competition,Standard Chartered,24.8583571,67.0270009
Competition,Faysal Bank Plaza Quarters,24.8644495,67.0220941
Competition,Sindh Bank,24.8646378,67.0246566
Competition,Burj Bank Limited,24.862219,67.02688
Competition,Allied Bank,24.8608423,67.0237543
Competition,Silkbank,24.8604851,67.0241178
Competition,Bank Islami,24.8601946,67.0238677
Competition,Bank Alfalah,24.8601395,67.0239049
Competition,Rizvi Chamber,24.8602679,67.0228384
Competition,MCB,24.8603381,67.0227694
Competition,Allied Bank Ltd. (ABL),24.8713526,67.0547532
Competition,Askari Bank,24.8728977,67.0562795
Competition,MCB Bank,24.8735413,67.0566872
Competition,"BOP Khalid Bin Waleed Road branch,Karachi",24.873453,67.056788
Competition,The Bank Of Punjab,24.8736374,67.0568476
Competition,Bank Islami,24.8733199,67.0572598
Competition,MCB Bank,24.8743329,67.0554818
Competition,Faysal Bank,24.8714548,67.0549085
Competition,Standard Chartered Bank,24.8751471,67.0531612
Competition,Sindh Bank,24.8713038,67.0594257
Competition,Summit Bank ATM Tariq Road,24.8715471,67.0595632
Competition,Dubai Islamic Bank,24.871072,67.0596664
Competition,United Bank - UBL,24.8718489,67.060182
Competition,Allied Bank Limited,24.872943,67.0604619
Competition,Faysal Bank,24.8730993,67.060539
Competition,National Bank of Pakistan (NBP),24.8690294,67.0579255
Competition,Bank AL Habib,24.7930803,67.1371454
Competition,Bank Alfalah,24.8731404,67.0563562
Competition,United Bank - UBL,24.8822526,67.0518713
Competition,JS Bank,24.8825823,67.0524144
Competition,Sindh Bank,24.8810497,67.0499884
Competition,Askari Bank,24.8837071,67.0543657
Competition,MCB Bank,24.8821139,67.0516665
Competition,Nib,24.8825237,67.052328
Competition,Mcb Bank,24.8825483,67.0523179
Competition,Bank Alfalah,24.8826212,67.0524909
Competition,Summit Bank,24.8827962,67.0527676
Competition,"Soneri Bank, New MA Jinnah",24.8815239,67.0507394
Competition,Bank Al Habib Limited Fatima Jinah Colony Branch,24.8839933,67.0548197
Competition,Tameer Bank,24.8865104,67.051594
Competition,MCB Bank Limited,24.8549714,67.0016982
Competition,Soneri Bank Limited,24.8546645,67.0015586
Competition,WallStreet Exchange Company Main Branch,24.8494103,67.0023671
Competition,Silk Bank,24.8546071,67.0017447
Competition,Allied Bank,24.8549095,67.0017215
Competition,JS Bank,24.8538107,67.0022625
Competition,Bank Alfalah,24.8556283,67.0008256
Competition,"Askari Bank Limited, Jodia Bazar Branch.",24.8534988,67.001032
Competition,"MCB Bank Ltd, Jodia Bazar Branch",24.8542935,67.0025703
Competition,IBB Faysal Bank,24.8528636,67.0010233
Competition,esahulat,24.8514054,67.0010815
Competition,State Bank Of Pakistan,24.8511712,67.0017803
Competition,United Bank,24.85103,67.00364
Competition,MCB Bank - North Napier Rd Br,24.85466,67.0047435
Competition,Askari Bank North Napier Road Branch,24.8561154,67.0038815
Competition,Bank Al Habib,24.7977937,67.0430468
Competition,Waseela Microfinance Bank,24.8289813,67.0421362
Competition,MCB Bank,24.8266663,67.0431903
Competition,Dubai Islamic Bank,24.8244377,67.0444915
Competition,BankIslami,24.828723,67.043021
Competition,JSBank,24.8294786,67.04159
Competition,Apna Microfinance Bank Limited,24.8256899,67.0436879
Competition,Bank AL Habib,24.8005732,67.0461566
Competition,"Summit Bank, Malir Cantt Branch",24.9444905,67.2035237
Competition,MCB Mlir Cntt. Branch,24.942143,67.2046643
Competition,Bank AL Habib,24.8081587,67.0625396
Competition,MCB Bank Limited,24.8359834,67.0706058
Competition,MCB,24.8374071,67.0685895
Competition,MCB Bank,24.8351488,67.0687253
Competition,Bank Al Habib Limited,24.8350885,67.068852
Competition,JS Bank,24.8326288,67.0679853
Competition,Bank Alfalah,24.8368633,67.0690656
Competition,Tawakal Jewellers,24.8372656,67.0682694
Competition,RBS Korangi Road Branch,24.8364766,67.0700564
Competition,"Habib Metro Bank, DHA Phase 1 Branch",24.8361337,67.0701797
Competition,MCB Bank Limited,24.8351032,67.0687299
Competition,National Savings Centre,24.8350209,67.0691257
Competition,Saving Lounge,24.8342248,67.0698193
Competition,National Savings Centre,24.8339654,67.0717226
Competition,Summit Bank Branch & ATM,24.8341628,67.0722115
Competition,Sindh Bank,24.9233998,67.0919939
Competition,United Bank,24.9206911,67.0950043
Competition,Dubai Islamic Bank,24.9233067,67.0929127
Competition,Dubai Islamic Bank - Regional Office South II,24.9233318,67.0928192
Competition,esahulat 61393,24.9200509,67.0899481
Competition,Bank AL Habib,24.8098653,67.0695799
Competition,BankIslami Pakistan Limited-Rashid Minhas Road Branch,24.9215055,67.0936472
Competition,Habib Metro Bank (Islamic),24.9215268,67.0935951
Competition,Allied Bank,24.9206619,67.0943157
Competition,Pak-Qatar Family Takaful,24.9205887,67.0941952
Competition,National Bank of Pakistan (0282),24.9236675,67.0925272
Competition,MCB Bank,24.9235392,67.0919364
Competition,"MCB Bank, Sessi Branch",24.9193915,67.0966383
Competition,HBL,24.9213639,67.0898547
Competition,Habib Bank,24.9213406,67.089826
Competition,Askari Bank,24.9252902,67.0930083
Competition,Sindh Bank,24.9067573,67.0481346
Competition,Allied Bank,24.9057324,67.0475058
Competition,United Bank Limited,24.9058765,67.0475667
Competition,Bank Alfalah,24.9056617,67.0482373
Competition,HabibMetro Bank,24.9061366,67.0477428
Competition,Askari Bank,24.9066306,67.0480591
Competition,HBL,24.90234,67.04536
Competition,Habib Bank,24.9014323,67.0448852
Competition,Bank AL Habib,24.8113748,67.0184647
Competition,Sindh Bank Limited,24.8577149,66.9998004
Competition,Bank AL Habib,24.8134086,67.0480652
Competition,Habib Metro Bank North Napier Road Branch,24.8567747,67.0036639
Competition,MCB North Napier Road Branch,24.8562262,67.0041176
Competition,Bank Al Falah Limited,24.8560196,67.0039161
Competition,"Soneri Bank, Napier Road",24.8558645,67.004193
Competition,Habib Bank Limited City Court,24.8561501,67.0051442
Competition,Summit Bank Plaza,24.8453097,66.9993596
Competition,Samba Bank,24.8451098,66.9971083
Competition,Allied Bank Limited,24.8451163,66.9969289
Competition,Summit Bank Head Office,24.8451719,67.0000906
Competition,Advans Pakistan Microfinance Bank Ltd,24.845078,66.996326
Competition,ABL,24.845134,66.996745
Competition,JS Bank,24.8859313,67.0308458
Competition,Advans Pakistan Microfinance Bank Ltd.,24.885974,67.030908
Competition,MCB Bank,24.8834606,67.0312635
Competition,Bank Al Habib,24.8235464,67.1398687
Competition,Bank AL Habib,24.8275771,67.037668
Competition,HBL Lasbella Br,24.8878751,67.0333134
Competition,National Bank of Pakistan (NBP),24.8854,67.0307341
Competition,United Bank Limited,24.8855161,67.0343802
Competition,Bank Al-Falah Garden Branch,24.8843977,67.0310304
Competition,"Soneri Bank, Garden Branch",24.8844302,67.0308531
Competition,Soneri Bank,24.884378,67.0309085
Competition,Habib Bank Limited,24.8836747,67.0310842
Competition,Summit Bank,24.8834984,67.0307703
Competition,Habib Bank Ltd Nazimabad Muslim League Branch 1500,24.907781,67.0263997
Competition,Bank AL Habib,24.8306032,67.0720043
Competition,MCB Bank Limited,24.9104697,67.0261254
Competition,Bank Alfalah,24.9054279,67.0277855
Competition,Faysal Bank,24.9412013,67.0454768
Competition,Standard Chartered,24.941355,67.0468998
Competition,UBL Bank,24.9394434,67.042914
Competition,Bankislami Block D Branch,24.9411622,67.0454859
Competition,Bank Al Habib,24.835603,67.1027595
Competition,Askari Bank,24.9383746,67.0430028
Competition,Silk Bank,24.9419573,67.0489822
Competition,Dubai Islamic Bank,24.9422625,67.0484109
Competition,Askari Bank Hyderi Branch,24.9382119,67.0429603
Competition,Sindh Bank,24.93607,67.0454682
Competition,Allied Bank Limited Haidery Market Branch Karachi,24.9356028,67.0460378
Competition,Bank Al habib Islamic North Nazimabad,24.9399703,67.0458963
Competition,"Bank Of Punjab, North Nazimabad.",24.9403035,67.0459909
Competition,Bank Al Habib Islamic Banking Division,24.9394535,67.0451647
Competition,MCB Bank,24.9407949,67.0466103
Competition,National Bank of Pakistan (NBP),24.941248,67.0467925
Competition,UBL Ameen,24.9421403,67.0486556
Competition,Askari Bank,24.942071,67.0487596
Competition,Silk Bank,24.9418901,67.0489624
Competition,Bank AL Habib,24.8376914,67.0678223
Competition,Soneri Bank,24.812996,67.0188495
Competition,Allied Bank,24.8131968,67.0189961
Competition,MCB Bank,24.8146956,67.0197997
Competition,HabibMetro Bank,24.8110708,67.0172775
Competition,J S Bank,24.8111298,67.0176865
Competition,Muslim Commercial Bank,24.8108343,67.0180724
Competition,Dubai Islamic Bank,24.8106188,67.0179618
Competition,Askari Bank,24.8119609,67.0168912
Competition,Bank Alfalah,24.8122579,67.0187896
Competition,MCB Bank Limited,24.8146964,67.0198453
Competition,Link 1 ATM - HBL,24.8413661,67.1657247
Competition,Allied Bank,24.8411047,67.1648633
Competition,Faysal Bank,24.9207711,67.0866675
Competition,Bank AL Habib,24.8381242,67.11988
Competition,UBL Bank,24.9223886,67.0885978
Competition,UBL Bank,24.92234,67.0885947
Competition,United Bank Gulshan Block 2 Branch,24.9222384,67.08852
Competition,National Savings Centre,24.9217527,67.0885099
Competition,Soneri Bank Gulshan Iqbal Block 2 Branch,24.9214102,67.0874126
Competition,Askari Bank,24.9210851,67.0877475
Competition,"Bank Alfalah, Gulshan Chowrangi Branch",24.9252659,67.0913484
Competition,Habib Bank Limited,24.9223713,67.0851223
Competition,Sindh Bank,24.8492913,67.0044136
Competition,Standard Chartered Bank (Pakistan) Limited - Head Office,24.8493203,67.0052236
Competition,UBL Head Office,24.8496392,67.003705
Competition,National Bank of Pakistan (NBP),24.8488274,67.0026651
Competition,National Bank of Pakistan (NBP),24.8506467,67.0035238
Competition,Habib Bank Foreign Exchange Commercial Branch,24.8507084,67.0009365
Competition,Bank Al Habib,24.8434094,67.1914652
Competition,Dubai Islamic Bank,24.9278047,67.0427108
Competition,Habib Bank Ltd.,24.9279779,67.0424797
Competition,Bank Alflah,24.9278123,67.0426054
Competition,Faisal Bank,24.9282932,67.0352386
Competition,United Bank - UBL,24.8400063,67.1662802
Competition,Habib Bank Limited,24.9139744,67.0259574
Competition,JS Bank,24.9174479,67.0309085
Competition,Allied Bank,24.91566,67.0334458
Competition,Faysal Bank,24.9144884,67.0307512
Competition,Soneri Bank,24.9134123,67.0269281
Competition,Bank AL Habib,24.8457676,67.0377089
Competition,Advans Pakistan Microfinance Bank Ltd,24.9167097,67.0275517
Competition,Habib Metro Bank,24.9149442,67.0307395
Competition,Bank Islami,24.9156768,67.0307977
Competition,Dubai islamic Bank,24.9172093,67.0309762
Competition,Habib Bank Limited (HBL),24.9158589,67.0334958
Competition,Bank Alfalah,24.9132907,67.0269643
Competition,Allied Bank Limited,24.9135388,67.0268064
Competition,Bank Al-Habib,24.9136823,67.0267271
Competition,"Summit Bank, Gole Market Branch",24.9153237,67.0265712
Competition,Standard Chartered Bank,24.8539384,67.0095246
Competition,Faysal Bank,24.8561407,67.0153034
Competition,UBL Bank,24.8540719,67.0151948
Competition,MCB BANK,24.8544301,67.0112868
Competition,JS Bank,24.8565611,67.0101777
Competition,Faysal Bank I.I.chundrigar road Branch 0170,24.8534857,67.0145862
Competition,Bank AL Habib,24.8497468,67.0049759
Competition,Askari Bank,24.8575495,67.0125266
Competition,IMnS Associates,24.8565591,67.0158508
Competition,BankIslami,24.856888,67.0165458
Competition,Habib Bank Limited,24.8549059,67.0116395
Competition,Bank Al Habib ATM,24.8546378,67.0114269
Competition,Allied Bank Paper Market,24.8543808,67.0114018
Competition,Bank Al Habib Pakistan Chock Branch,24.8545962,67.0111325
Competition,National Savings Centre,24.8549068,67.0145125
Competition,Sindh Bank,24.8541328,67.0099209
Competition,Askari Bank Paper Market Branch,24.8540942,67.0098561
Competition,Askari Bank,24.854026,67.0098803
Competition,BankIslami,24.9441032,67.0495176
Competition,Bank AL Habib ATM,24.9397526,67.0519571
Competition,AMC,24.9412333,67.0503685
Competition,Sindh Bank,24.9403357,67.0511293
Competition,Askari Bank,24.944434,67.048387
Competition,National Saving Centre,24.9391294,67.051131
Competition,Bank Alfalah ATM,24.939399,67.0516399
Competition,MCB Islamic Bank,24.9393753,67.0516771
Competition,Summit Bank,24.8271846,67.0329231
Competition,Habib Bank Ltd.,24.8277325,67.0303789
Competition,MCB Bank,24.8256485,67.0344047
Competition,Faysal Bank,24.8272439,67.0339862
Competition,Samba Bank,24.8277803,67.033017
Competition,Samba Bank ATM,24.827791,67.0331173
Competition,Allied Bank,24.8279298,67.0338835
Competition,Soneri Bank,24.8281492,67.0339593
Competition,Dubai Islamic Bank,24.8282971,67.0340475
Competition,BankIslami,24.8270081,67.0341419
Competition,Dubai Islamic Bank,24.828419,67.0339796
Competition,United Bank - UBL,24.8268352,67.0344424
Competition,United Bank,24.8267387,67.0346357
Competition,Allied Bank,24.8257757,67.0256067
Competition,Sindh Bank Limited,24.8276964,67.0305021
Competition,Standard Chartered,24.8269826,67.028729
Competition,Emaan Islamic Clifton Branch,24.8274864,67.0277585
Competition,Bank Alfalah,24.8275074,67.0275933
Competition,Silk Bank,24.8276191,67.0270659
Competition,JS Bank,24.9385745,67.1013047
Competition,MCB Bank,24.9410681,67.0986114
Competition,Bank Alfalah,24.9378221,67.1025694
Competition,Habib Metropolitan Bank,24.9440437,67.0985876
Competition,Habib Metrpolitan ATM,24.9376619,67.1028003
Competition,United Bank - UBL,24.8116314,67.0291455
Competition,Dubai Islamic Bank,24.8081033,67.0365027
Competition,Bank Alfalah,24.8082693,67.0363355
Competition,"Dubai Islamic Bank, 26th Street Branch",24.8095698,67.0344077
Competition,NIB Bank Ltd,24.8115665,67.0294135
Competition,nbp tohid commercial,24.8081617,67.0361529
Competition,Bank Alfalah,24.8082578,67.0363584
Competition,National Bank of Pakistan (NBP),24.8082018,67.0364375
Competition,MCB Bank,24.8920375,67.0629277
Competition,Dubai Islamic Bank,24.8918498,67.0630363
Competition,Allied Bank Limited,24.8934043,67.06421
Competition,United Bank - UBL,24.8904451,67.061767
Competition,Allied Bank,24.8898413,67.0590251
Competition,MCB,24.8918724,67.0630127
Competition,National Savings Centre Jamshaid Road,24.8918725,67.0631064
Competition,Habib Metropolitan Bank,24.8916106,67.0628237
Competition,BankIslami,24.8914429,67.0627004
Competition,Askari Bank,24.8932885,67.0640537
Competition,United Bank,24.8903636,67.0618116
Competition,Soneri Bank,24.8902649,67.0616851
Competition,UBL Bank,24.8943574,67.0616308
Competition,Bank AL Habib,24.8498268,67.0075405
Competition,Al Baraka Bank,24.9192514,67.1327087
Competition,Bank Alfalah,24.9214044,67.1349782
Competition,Bank Al Habib ATM,24.9179311,67.1312881
Competition,Islamic Bank,24.9224987,67.1360772
Competition,Dubai Islamic Bank,24.92253,67.136152
Competition,Kashf Foundation M1 Branch,24.9184757,67.1295682
Competition,Bank AL Habib Ltd (Islamic Banking),24.957975,67.0769261
Competition,MCB Islamic Bank,24.9581261,67.0769646
Competition,Soneri Bank,24.9567697,67.076738
Competition,MCB Bank,24.959182,67.0771266
Competition,HBL Bank,24.9594072,67.0772081
Competition,National Savings Centre,24.9597197,67.0734879
Competition,Faysal Bank Ltd. IBB Binoria SITE Br 3078,24.9061188,66.9958382
Competition,Allied Bank Ltd,24.906141,66.9956703
Competition,Faysal Bank Ltd,24.906086,66.9956113
Competition,First Microfinance Bank,24.9085873,66.9958226
Competition,United Bank - UBL,24.8012615,67.0383861
Competition,Habib Bank Seaview Branch,24.8014019,67.0367439
Competition,Askari bank Limited Islamic Banking Branch,24.8020157,67.0373501
Competition,Dubai Islamic Bank,24.8631028,67.0740518
Competition,JS Bank,24.8631442,67.0741296
Competition,MCB Bank,24.8626617,67.0727221
Competition,Bank Al-Habib City Tower Branch,24.8637225,67.0736713
Competition,Soneri Bank,24.8633121,67.0744863
Competition,Sindh Bank Shahrah E Faisal Branch,24.8636035,67.074495
Competition,Nib collection and sales office,24.8621327,67.074609
Competition,Faysal Bank,24.8624666,67.0719811
Competition,MCB Bank Shahrah-E-Faisal Sales Office Karachi,24.8623022,67.074834
Competition,J S Bank,24.8641535,67.0746434
Competition,Summit Bank - Shahrah-e-Faisal,24.8623733,67.0716475
Competition,Standard Chartered Bank,24.8643031,67.0748849
Competition,UBL Bank,24.8638147,67.0754432
Competition,BankIslami,24.8642369,67.07627
Competition,Allied Bank Limited (ABL),24.8617668,67.069661
Competition,Summit Bank,24.8654263,67.0772101
Competition,United Bank - UBL,24.8635451,67.0732756
Competition,United Bank,24.8635609,67.0732481
Competition,esahulat 65270,24.9456159,67.0407414
Competition,Habib Bank Limited (HBL),24.9487528,67.0432934
Competition,HBL,24.9487651,67.0432293
Competition,National Bank of Pakistan (NBP),24.9218775,67.0227921
Competition,Allied Bank Limited,24.9217449,67.0217273
Competition,Askari Bank Limited,24.9221136,67.0251021
Competition,JS Bank Ltd,24.9218948,67.0253925
Competition,UBL Bank,24.9215467,67.0261556
Competition,MCB Bank,24.9210143,67.0266905
Competition,Habib Metro Bank,24.9225224,67.0241889
Competition,Habib Bank,24.9220579,67.0245612
Competition,National Savings Centre,24.9205628,67.024105
Competition,Standard Chartered Bank,24.865651,67.0248918
Competition,United Bank - UBL,24.8650699,67.0220139
Competition,National Bank of Pakistan (NBP),24.8656556,67.0253297
Competition,JS Bank,24.8666704,67.0260778
Competition,Faysal Bank,24.8673981,67.0240958
Competition,Faysal Bank,24.8639278,67.024268
Competition,Silk Bank,24.8635968,67.0247268
Competition,Dubai Islamic Bank,24.8632391,67.0246535
Competition,JS Bank Orangi Town Branch,24.941083,66.999541
Competition,JS Bank Branch 9619,24.9410772,66.9995813
Competition,Askari Commercial Bank Orangi Town Branch,24.9411945,67.0004909
Competition,HBL Orangi Town Branch,24.9389798,67.0031664
Competition,Bank Alfalah,24.9410717,66.9996889
Competition,Sindh Bank Orangi,24.9408556,67.0002726
Competition,Bank Al Islami,24.9409187,67.0008966
Competition,National Bank of Pakistan (NBP),24.9421369,66.9980762
Competition,Advans Pakistan Microfinance Bank Ltd.,24.853559,67.0727555
Competition,BankIslami,24.8536807,67.0734369
Competition,United Bank - UBL,24.8537407,67.0735539
Competition,MCB Bank Limited,24.8520659,67.0687759
Competition,HabibMetro Bank,24.8522977,67.0695742
Competition,National Savings Centre,24.8527799,67.0707902
Competition,HBL Bank & ATM,24.8529591,67.071261
Competition,Bank AL Habib,24.8525527,66.9958564
Competition,MCB Bank Limited,24.8464023,67.02451
Competition,alBaraka Bank,24.84628,67.0241365
Competition,National Bank of Pakistan (NBP),24.846522,67.0248275
Competition,First Women Bank Ltd. (FWBL) - Imperial Court Branch,24.843673,67.028562
Competition,(NBP) National Bank of Pakistan,24.8464707,67.0248972
Competition,Habib Bank Limited State Life Branch,24.8451518,67.0265978
Competition,Habib Metro Bank,24.8454979,67.0241211
Competition,United Bank Limited,24.846537,67.0237763
Competition,MCB Bank,24.844204,67.0251617
Competition,HBL DAWOOD CENTER BRANCH,24.846168,67.023118
Competition,First Women Bank Ltd. (FWBL) - Head Office,24.843503,67.027547
Competition,Zarai Taraqiati Bank Ltd,24.8503215,67.0291178
Competition,Allied Bank Limited,24.9380928,67.1527916
Competition,Faysal Bank,24.9376975,67.1501705
Competition,JS Bank,24.9372898,67.1468984
Competition,United Bank Limited,24.9384528,67.1516089
Competition,Sindh Bank,24.9383149,67.1528427
Competition,MCB Islamic Bank,24.9378539,67.1500576
Competition,Bank Dubai Islami,24.9376734,67.1496381
Competition,Habib Bank,24.9385659,67.154693
Competition,Bank Al Habib ( Islamic Branch ),24.9375965,67.1485937
Competition,Allied Bank Limited,24.9590884,67.0613945
Competition,Faysal Bank,24.9549118,67.065658
Competition,askari bank buffer zone branch,24.9570406,67.0617834
Competition,BankIslami,24.9578807,67.060285
Competition,Allied Bank Limited Bufferzone Branch,24.9562587,67.0629716
Competition,Sindh Bank,24.8814004,67.0689137
Competition,JS Bank,24.882058,67.0678579
Competition,Alamgir Welfare Trust,24.8796151,67.0717457
Competition,Bank Al Habib Ltd.,24.8766586,67.070708
Competition,MCB,24.8767303,67.0703849
Competition,Bank Alfalah,24.8769386,67.0699185
Competition,MCB BISMILLAH BLESSING BRANCH,24.8771163,67.0696386
Competition,Silk Bank,24.8810536,67.0688973
Competition,Allied Bank Ltd,24.8811242,67.0688158
Competition,Burj Bank,24.8779439,67.0684353
Competition,Askari Bank,24.8814649,67.0687739
Competition,Faysal Bank,24.8777813,67.0672075
Competition,Summit Bank,24.8749807,67.0880234
Competition,Faysal Bank,24.8747994,67.0880784
Competition,Allied Bank,24.8750054,67.0885519
Competition,Sindh Bank,24.8750616,67.0884767
Competition,Habib Bank Ltd. (HBL),24.8754824,67.0851321
Competition,National Bank of Pakistan (NBP),24.8751206,67.0878913
Competition,Dubai Islamic Bank,24.8756931,67.0875235
Competition,MCB Tipu Sultan Road Branch,24.8751234,67.0844125
Competition,MCB,24.8751154,67.0843917
Competition,Standard Chartered Bank,24.8746893,67.0880031
Competition,Sindh Microfinance Bank,24.8750616,67.0884767
Competition,United Bank Limited,24.8749992,67.0887003
Competition,MCB Islamic Bank,24.8759045,67.087429
Competition,Bank Alfalah,24.875436,67.0846904
Competition,Dubai Islamic Bank,24.8755887,67.084841
Competition,National Savings Centre,24.8749226,67.0841476
Competition,Bank AL Habib,24.8539031,67.0094481
Competition,Al Baraka,24.8750433,67.0846167
Competition,Burj Bank,24.8753865,67.084669
Competition,Wallstreet Exchange Company Tariq Road Branch,24.8668444,67.0569998
Competition,JS Bank,24.8710146,67.0617449
Competition,National Savings Centre,24.8693863,67.057849
Competition,Askari Bank,24.8577512,67.0832007
Competition,Allied Bank,24.857963,67.0832704
Competition,Faysal Bank,24.858178,67.0828136
Competition,esahulat 61394,24.8583243,67.0855439
Competition,Bank AL Habib Baloch Colony Branch,24.8627433,67.0803193
Competition,BankIslami,24.8628366,67.0801146
Competition,Sindh Bank,24.858276,67.0830103
Competition,"HBL, KAECHS Branch",24.863094,67.0799627
Competition,HBL Shireen Jinnah Colony Branch,24.8179556,67.002024
Competition,Habib Bank Pvt Ltd,24.817928,67.0019892
Competition,Bank Alfalah limited,24.817916,67.0016673
Competition,Bank Islami,24.8174889,67.0046315
Competition,MCB,24.8186121,66.9973983
Competition,Soneri Bank,24.9262814,67.0632452
Competition,Tameer Bank,24.9235924,67.0660933
Competition,HBL ATM,24.927168,67.0647103
Competition,Bank Alfalah,24.9283547,67.0646149
Competition,"habib bank limited, Nazia Square, Block 20, F. B. Area, Karachi, Gulberg",24.9255182,67.0655663
Competition,Habib Metro Bank,24.9259241,67.0657628
Competition,First Women Bank Ltd. (FWBL) - F. B. Area Branch,24.9259469,67.0652515
Competition,First Women Bank Ltd. (FWBL) - F. B. Area Branch,24.9260193,67.0652662
Competition,Bank AL Habib,24.8547288,67.0049836
Competition,Habib Bank,24.927044,67.0648309
Competition,MCB,24.9282111,67.0656001
Competition,Habib bank Naseerabad Branch,24.9275827,67.0696449
Competition,"Bank Alfalah, Aysha Manzil Branch",24.9283615,67.0647558
Competition,Dubai Islamic Bank,24.92911,67.0655204
Competition,BankIslami,24.9270731,67.0297149
Competition,United Bank - UBL,24.9248764,67.0329154
Competition,Habib Metro Bank,24.9271613,67.0331317
Competition,MCB Bank,24.9263816,67.0308675
Competition,National Bank of Pakistan (NBP),24.9244787,67.0310905
Competition,Bank Alfalah,24.9274005,67.0333024
Competition,Bank AL Habib Block B,24.9258077,67.0331149
Competition,Habib Bank Limited Taimuria Branch,24.9253972,67.032956
Competition,JLI Building,24.8490799,67.003042
Competition,NBP Head Office,24.8488085,67.0026722
Competition,Bank AL Habib Ltd Administration Division,24.8507687,67.0076665
Competition,Faysal Bank,24.8492642,67.0011158
Competition,NIB Bank Bandookwala Building,24.8493141,67.004654
Competition,Bank Al Habib Ltd Head Office,24.84991,67.005409
Competition,"Capital Plaza, I. I. Chundrigar Road",24.846991,67.003451
Competition,State Life Building,24.849179,67.0034513
Competition,Allied Bank,24.8497501,67.0041487
Competition,UBL Tower,24.8498262,67.0035084
Competition,Habib Bank Limited imtiaz Office,24.8337719,67.0728797
Competition,Silkbank,24.8319341,67.073687
Competition,Askari Bank (Office Building),24.8310213,67.0742127
Competition,Horcrux Films,24.8324783,67.073617
Competition,Sindh Bank Saadat Islamic Banking,24.8323207,67.0740531
Competition,Samba Bank Ittehad Branch,24.8315306,67.0737101
Competition,Bank Alfalah Limited - Islamic Banking,24.8315256,67.0742245
Competition,Faysal Bank,24.8304523,67.072526
Competition,Bank Al Habib Ittehad Branch,24.8309093,67.0744156
Competition,Summit Bank,24.8296788,67.0717364
Competition,Askari Islamic Bank,24.8329464,67.0719897
Competition,NRSP Microfinance Bank,24.8326787,67.0719493
Competition,Soneri Bank,24.83263,67.07172
Competition,Faysal Bank Limited,24.8326139,67.0714331
Competition,National Bank of Pakistan (NBP) Aitemaad Islamic,24.8581978,67.0519477
Competition,United Bank - UBL,24.8581753,67.0523856
Competition,HBL FTC Branch,24.858216,67.0525137
Competition,NBP FTC Branch,24.8586343,67.052058
Competition,"House Building Finance Company Limited, Head Office",24.8586419,67.0521633
Competition,Allied Bank,24.8587393,67.0522428
Competition,Khushali Bank Limited,24.8584156,67.0529455
Competition,BankIslami,24.8600331,67.0550115
Competition,National Bank of Pakistan (NBP),24.860708,67.0545017
Competition,Pak Oman Microfinance Bank Limited,24.8583742,67.0523179
Competition,Apna Bank Shahra E Faisal,24.8593963,67.055273
Competition,National Bank of Pakistan,24.8611927,67.0545324
Competition,Bank AL Habib,24.8566293,67.0104167
Competition,Bank AL Habib,24.8596446,67.0289337
Competition,Bank Alfalah,24.8668626,67.3513439
Competition,Soneri Bank Limited,24.8655717,67.3530941
Competition,UBL Bank and ATM,24.8653931,67.3525134
Competition,Allied Bank Limited,24.8660767,67.3542954
Competition,National Bank of Pakistan (NBP),24.8667094,67.3511401
Competition,MCB Bank,24.864782,67.3506063
Competition,Sindh Bank Limited,24.8669117,67.3491951
Competition,United Bank - UBL,24.8654391,67.352444
Competition,Bank AL Habib,24.8596601,67.0004651
Competition,"Ali Real Estate , Nawab Market Opposite NADARA & Union Council -06.",24.8655029,67.3515783
Competition,"Ali Real Estate, Gulshan E Hadeed",24.8655057,67.3515397
Competition,Bank Al-Islami,24.8650305,67.3516127
Competition,MCB Bank,24.8505591,66.9940194
Competition,United Bank - UBL,24.8494763,66.9897231
Competition,National Bank of Pakistan (NBP),24.8486585,66.9918823
Competition,Muslim Commercial Bank,24.8493412,66.9878255
Competition,NBP Custom House Branch,24.8485578,66.9920104
Competition,MCB Bank,24.8504648,66.993904
Competition,BankIslami Pakistan West Wharf Branch,24.8491606,66.9878238
Competition,Al Baraka Bank (Pakistan) Limited,24.8503898,66.9950779
Competition,Summit Bank,24.9234738,67.1159111
Competition,United Bank - UBL,24.9228525,67.1156637
Competition,Zarai Taraqiati Bank Limited,24.9247984,67.1182304
Competition,Bank Alfalah,24.924416,67.1151816
Competition,"HBL Block 1 Branch, Gulistan-e-Johar, Karachi.",24.924441,67.1149598
Competition,Dubai Islamic Bank G.Jauhar,24.9228164,67.1156894
Competition,Allied Bank Sobia Pride Branch Gulistan-e-Johar,24.9280363,67.1129834
Competition,Zarai Taraqyati Bank,24.8155121,67.1103685
Competition,Bank Islami Branch,24.8183544,67.1130907
Competition,Dubai Islamic Bank,24.819837,67.1131165
Competition,Bank Al Habib,24.8602013,67.0534115
Competition,"Habib Metro Bank, SITE 2 Branch",25.0063169,67.1043986
Competition,Bank Alfalah,25.0051258,67.1033824
Competition,HabibMetro Bank,24.9303228,67.1157713
Competition,MCB Bank,24.929875,67.1168805
Competition,United Bank - UBL,24.9310179,67.1176366
Competition,National Bank of Pakistan (NBP),24.9299812,67.1154149
Competition,"NBP, NED University Branch (code 1063)",24.9301151,67.1153254
Competition,Habib Metropolitan Bank,24.9301959,67.1156921
Competition,MCB,24.9299134,67.1165606
Competition,Bank AL Habib,24.8612569,67.0651898
Competition,MCB Bank Limited,24.8923182,67.0538987
Competition,Bank AL Habib,24.8622557,67.0139978
Competition,Habib Metro Bank,24.8926494,67.0543071
Competition,United Bank - UBL,24.8925913,67.0540408
Competition,HBL PIB Branch,24.8924106,67.0540995
Competition,National Bank of Pakistan (NBP),24.8924809,67.0528828
Competition,Bank Al Falah,24.9781595,67.0557833
Competition,Post Office,24.9788743,67.0576176
Competition,United Bank - UBL,24.8504064,67.0165329
Competition,JS Bank Limited,24.8505428,67.0194328
Competition,Burj Bank Limited (Head Office),24.850533,67.016816
Competition,MCB Bank Shaheen Complex Karachi,24.8505615,67.0195543
Competition,NBP - Pakistan Currency Exchange Company Ltd.,24.8507644,67.019558
Competition,Faysal Bank,24.8505764,67.0173365
Competition,Allied Bank Ltd Saima Trade Branch,24.8508286,67.0168366
Competition,Dubai Islamic Bank,24.8508545,67.015808
Competition,Sindh Bank,24.8537939,67.0217343
Competition,National Bank of Pakistan (NBP),24.854358,67.0184007
Competition,MCB Bank,24.8549999,67.0186313
Competition,The Bank of Tokyo Mitsubishi UFJ,24.8505302,67.0196192
Competition,Apna Microfinance Bank,24.850581,67.0177177
Competition,Spencers Building,24.8509475,67.0175071
Competition,Habib Metropolitan Bank Main Branch,24.8512417,67.0173706
Competition,Askari Bank,24.8508341,67.0170998
Competition,Habib Metro Alfalah Court Branch,24.8505648,67.0167709
Competition,Silk Bank,24.8507945,67.0167498
Competition,Habib Bank HBL,24.8550939,67.0194118
Competition,HabibMetro Bank,24.9095803,67.0100874
Competition,"Standard Chartered SITE Area Branch, Code 119",24.9097785,67.0103556
Competition,United Bank - UBL,24.9108232,67.0141937
Competition,Faysal Bank,24.9073656,67.0081915
Competition,Askari Bank SITE Branch,24.9072318,67.0080718
Competition,Al-Awan Traders,24.90745,67.007242
Competition,AlBaraka Bank SITE Area Branch,24.9100014,67.0105351
Competition,Sindh Bank,24.9098229,67.0103969
Competition,SME Bank,24.9099713,67.0100706
Competition,Khyber Bank,24.911468,67.0126468
Competition,NBP S.I.T.E Branch,24.9115468,67.0127962
Competition,HBL - Industrial Estate (Site) Branch,24.9114845,67.0136561
Competition,United Bank Limited,24.9107683,67.0139964
Competition,MCB Bank,24.9118302,67.0139944
Competition,MCB Bank,24.9121572,67.0139567
Competition,Soneri Bank,24.9070521,67.0077141
Competition,Summit Bank Branch Code 1-2-21,24.9180172,66.9616887
Competition,Allied Bank,24.914721,66.9636655
Competition,Bank Al Habib Saeedabad Branch,24.9157269,66.9634878
Competition,National Bank Of Pakistan Baldia Town Branch,24.914905,66.9636239
Competition,MCB BANK,24.9172603,66.962429
Competition,esahulat 63723,24.9123225,66.9649315
Competition,United Bank - UBL,24.9195585,66.9639971
Competition,Habib Bank,24.9161106,66.9630905
Competition,Bank Al Habib Metroville,24.920171,67.0020847
Competition,Faisal Bank Branch 436,24.9222162,67.0014364
Competition,"Soneri Bank, Metroville",24.9204947,67.0017797
Competition,Allied Bank Metroville Branch,24.9220964,67.0016959
Competition,Allied Bank Branch 0734,24.9221822,67.0015078
Competition,Askari Bank LTD Metroville Branch,24.9222133,67.0013359
Competition,Standard Chartered Bank,24.7799792,67.0558254
Competition,Soneri Bank,24.7809527,67.0567495
Competition,"Dubai Islamic Bank, Muslim Commercial Branch",24.7807379,67.0563972
Competition,Askari Bank Seaview branch ATM,24.7803404,67.0561206
Competition,Bank Al Habib,24.865402,67.3523048
Competition,Soneri Bank,24.7982824,67.0456115
Competition,Bank AL Habib,24.8692904,67.0585234
Competition,MCB,24.8005296,67.0464197
Competition,BankIslami,24.7994667,67.0477739
Competition,MCB Bank,24.8005403,67.0463404
Competition,Askari Bank Ltd Badar Commercial Branch,24.797794,67.046988
Competition,Askari Bank,24.7977931,67.0469874
Competition,MCB Bank Limited,24.7975362,67.0434076
Competition,Faysal Bank,24.7962954,67.0451326
Competition,HBL,24.7996507,67.0474531
Competition,Allied Bank,24.7976865,67.0467732
Competition,Dubai Islamic Bank,24.7976981,67.0451218
Competition,HabibMetro Bank,24.7973926,67.0437053
Competition,Bank Alfalah,24.7976161,67.0433243
Competition,National Bank of Pakistan (NBP),24.8516181,66.9982365
Competition,Faysal Bank Cloth Market Branch,24.8514721,66.9982871
Competition,JS Bank,24.8498525,66.9975678
Competition,Summit Bank Cloth Market,24.8507939,66.9987243
Competition,United Bank Limited,24.8507699,66.9987324
Competition,Allied Bank,24.8486871,66.9959526
Competition,BankIslami Pakistan Limited Steel Market Branch,24.849763,66.998841
Competition,Gate no.1 (Public Enterance ) State Bank,24.8486689,66.9980428
Competition,United Bank - UBL,24.8525575,66.9957551
Competition,Allied Bank,24.8534563,66.9957428
Competition,Soneri Bank Ltd,24.8511648,66.996083
Competition,Albaraka Bank Kharadar Branch,24.8513056,66.9965688
Competition,hmb bank cloth market,24.8519506,66.9973829
Competition,Bank AlHabib cloth Market Branch,24.8514654,66.9986167
Competition,Bank Alfalah,24.9681394,67.0672455
Competition,Bank AL Habib,24.8725576,67.0606174
Competition,BankIslami Bank & Atm,24.9696708,67.0662439
Competition,Faysal Bank,24.969992,67.0662466
Competition,Muslim Commercial Bank,24.9696718,67.0671466
Competition,Soneri Bank Limited,24.9703153,67.0670973
Competition,United Bank - UBL,24.9704103,67.0670909
Competition,Allied Bank Ltd (ABL),24.970587,67.0670767
Competition,Askari Bank Ltd & ATM Nagan Chowrangi Branch,24.9715348,67.0661242
Competition,Sindh Bank Limited,24.9674094,67.0673571
Competition,esahulat 64731,24.9718883,67.0642161
Competition,MCB UP More Branch,24.9724624,67.0647174
Competition,Dubai Islamic Bank,24.9736395,67.0669154
Competition,faysal bank,24.9699297,67.0662818
Competition,HBL,24.9691669,67.0671749
Competition,United Bank - UBL,24.970407,67.0670916
Competition,Standard Chartered Bank,24.9704485,67.067932
Competition,Soneri Bank,24.9085689,67.0837574
Competition,National Bank of Pakistan (NBP),24.9102104,67.0872331
Competition,BankIslami,24.9101066,67.0859216
Competition,Faysal Bank,24.9106208,67.0868221
Competition,Faysal Bank Limited,24.9106205,67.0868241
Competition,MCB Bank,24.9096675,67.0850668
Competition,Bank AL Habib,24.8740026,67.0553697
Competition,JS Bank Limited,24.9079376,67.0828109
Competition,United Bank - UBL,24.907691,67.0824686
Competition,HBL Islamic Banking,24.9105296,67.086626
Competition,Nationsl Bank Urdu Science College,24.9100631,67.0871946
Competition,National bank Urdu University Branch,24.9101817,67.0872292
Competition,Sindh Bank,24.9096903,67.0854217
Competition,Bank of Punjab,24.9110639,67.0873374
Competition,Silkbank Emaan Islamic Branch,24.909086,67.0843946
Competition,Dubai Islamic Bank,24.9085751,67.0837723
Competition,NRSP Bank,24.9120859,67.0888445
Competition,JS Bank University Road Branche,24.9079698,67.0827807
Competition,United Bank Limited,24.9079169,67.0827006
Competition,Bank AL Habib,24.8757296,67.0848662
Competition,Askari Bank Ltd Samnabad Branch,24.9428416,67.0717595
Competition,Habib Bank Limited,24.9423181,67.0715107
Competition,National Bank of Pakistan (NBP),24.94173,67.07085
Competition,Allied Bank,24.9425568,67.0716573
Competition,HBL Samanabad,24.9424312,67.0715406
Competition,Soneri Bank,24.9423893,67.071435
Competition,Bank AL Habib,24.8762518,67.0332655
Competition,Faysal bank ltd,24.8591289,67.0090455
Competition,JS Bank,24.8527871,67.007528
Competition,Summit Bank M.A JINNAH ROAD,24.856416,67.0104228
Competition,Dubai Islamic Bank,24.8565295,67.010349
Competition,Bank AL Habib,24.8776145,67.035024
Competition,Al Baraka Bank,24.8563731,67.0100623
Competition,Alfalah Bank,24.856287,67.010027
Competition,MCB Bank,24.85639,67.009982
Competition,Sarim Burney Trust Inc,24.8567074,67.0109803
Competition,Habib Bank Limited,24.8559156,67.0091484
Competition,Bank AL Habib,24.8776557,67.0588452
Competition,Askari Bank Limtied,24.8841952,67.1677387
Competition,National Bank of Pakistan (NBP),24.8841192,67.1687013
Competition,Mega Currency Exchange Company B Pvt ltd,24.8856427,67.1665047
Competition,Bank Islami,24.8843309,67.1677963
Competition,Muhamamdi Exchange Main Branch,24.8857306,67.1660023
Competition,Faysal Bank Barkat (Islamic),24.9081644,67.1089679
Competition,Khushhali Bank Limited,24.9080954,67.1090405
Competition,Muslim Commercial Bank,24.9077621,67.1095116
Competition,Samba Bank,24.9066488,67.1119363
Competition,Allied Bank,24.9109736,67.1053136
Competition,United Bank - UBL,24.909046,67.1086727
Competition,MCB Islamic,24.9078343,67.1094153
Competition,Bank Alfalah,24.9074274,67.1099702
Competition,Bank Alfalah,24.8823463,67.0677567
Competition,Allied Bank,24.8802447,67.0655008
Competition,Sindh Bank,24.8810356,67.0619977
Competition,United Bank Limited,24.8815758,67.0663073
Competition,Standard Chartered,24.8809109,67.0660089
Competition,MCB Bank,24.8804317,67.0660343
Competition,BankIslami,24.8800146,67.0649685
Competition,MCB Bank,24.8804655,67.0659681
Competition,Bank Al Habib,24.8812909,67.0663156
Competition,Summit Bank,24.8819957,67.0668659
Competition,The Bank of Khyber,24.8826943,67.0671451
Competition,Bank AL Habib,24.8815275,67.0976888
Competition,"Soneri Bank, Lea Market",24.85992,67.00063
Competition,MCB Bank Lea Market,24.8587013,66.9999715
Competition,Tameer Bank,24.8613205,66.999079
Competition,UBL Bank,24.8614352,67.0028415
Competition,Burj Bank Limited,24.855836,67.001087
Competition,Atlas Bank,24.8557255,67.0009535
Competition,Albaraka Bank,24.855627,67.001096
Competition,United Bank Limited,24.8553602,67.0007412
Competition,Summit Bank,24.8552274,67.0016938
Competition,Bank Al Habib,24.8836006,67.0653956
Competition,Habib Bank Limited,24.8755454,67.031333
Competition,Habib Metropolitan Limited,24.8752256,67.0315191
Competition,HBL,24.8540911,67.0283739
Competition,State Life Insurance,24.854477,67.028397
Competition,NIB,24.8544206,67.0283726
Competition,MCB Bank,24.8572791,67.0290785
Competition,Bank Alfalah,24.8576889,67.0277015
Competition,JS Bank,24.8574331,67.033187
Competition,MCB Bank Limited,24.8581442,67.028587
Competition,National Bank of Pakistan (NBP),24.855293,67.0259625
Competition,Dubai Islamic Bank,24.8518955,67.032566
Competition,National Bank of Pakistan (NBP),24.8516376,67.0320229
Competition,United Bank,24.8521386,67.0327469
Competition,Askari Bank,24.8557312,67.0298678
Competition,Summit Bank,24.8558234,67.029798
Competition,Allied Bank Limited (Zaibunnisa Street 0178),24.8568948,67.0293622
Competition,Samba Bank,24.8539906,67.0273231
Competition,Allied Bank Limited,24.8610339,67.0177224
Competition,National Savings Centre,24.8647534,67.0195731
Competition,United Bank Plaza Quaters Branch,24.8650667,67.0221185
Competition,Alfalah Bank,24.8648304,67.022145
Competition,Habib Metro Bank,24.8631901,67.0214228
Competition,Habib Bank,24.8628037,67.0216668
Competition,Bank Al Habib Plaza Square Branch,24.8631354,67.0221769
Competition,Bank Al-Habib & ATM,24.8656769,67.0231462
Competition,HBL Radio Pakistan Branch,24.8612308,67.0192754
Competition,JS Bank,24.8854924,67.0798266
Competition,Bank Islami Pakistan Ltd. (BIPL),24.8859592,67.0793776
Competition,Dubai Islamic Bank,24.8859153,67.0790836
Competition,Muslim Commercial Bank (MCB),24.885837,67.0794902
Competition,Bank AL Habib,24.8843494,67.0288328
Competition,Faysal Bank,24.8863444,67.0787868
Competition,Allied Bank Limited Dhoraji Branch,24.8864338,67.0786538
Competition,Allied Bank,24.8864849,67.0786711
Competition,Askari Bank,24.8847932,67.0807154
Competition,Sindh Bank,24.8847254,67.0807831
Competition,Habib Bank Ltd. (HBL),24.8876385,67.0781214
Competition,Allied Bank Dhoraji Branch,24.8827639,67.0822755
Competition,Habib Metropolitan Bank,24.8857838,67.0791945
Competition,HabibMetro Bank,24.8858732,67.0791342
Competition,United Bank - UBL,24.8853562,67.0796321
Competition,HabibMetro Sirat Islamic Bank,24.8855126,67.079786
Competition,Summit Bank,24.8847436,67.0803016
Competition,Albaraka Bank,24.884785,67.0804183
Competition,Bank Alfalah Islamic,24.8846734,67.080415
Competition,HBL,24.8608894,67.0635712
Competition,Standard Chartered Bank,24.8604304,67.0649226
Competition,"Bank AL Habib Limited, Credit Hub (SMAR)",24.8611905,67.0678984
Competition,The Bank Of Punjab,24.8601383,67.06331
Competition,esahulat,24.8596118,67.061601
Competition,Summit Bank,24.8613375,67.0658996
Competition,MCB Bank,24.8612019,67.0653923
Competition,Bank Al Habib,24.8843817,67.0286336
Competition,Bank Alfalah,24.8611842,67.0651851
Competition,HBL Nursery Branch Karachi,24.8609532,67.0635516
Competition,Jaffer Building T.p Office,24.8619761,67.0683441
Competition,Askari Bank,24.860181,67.063613
Competition,U Bank Microfinance,24.8620259,67.0704067
Competition,Bank Alfalah,24.8546057,67.2250602
Competition,BankIslami,24.8545941,67.2251131
Competition,Askari Bank,24.9036459,67.0764986
Competition,JS Bank Branchless Banking Regional Office (South),24.9033785,67.0761125
Competition,AL BAQEI CITY BOOKING OFFICE,24.9043828,67.0775365
Competition,State Life Insurance Area Office,24.90488,67.078267
Competition,Bank AL Habib,24.8844346,67.1678842
Competition,MCB Bank Limited,24.9055048,67.0789723
Competition,Regional Audit Office South Askari Bank Limited,24.9055906,67.0793636
Competition,Standard Chartered Bank,24.905713,67.0795506
Competition,Bank Al Habib Ltd. (BAHL),24.9056,67.0806268
Competition,Summit Bank Gulshan,24.9056475,67.0807937
Competition,MCB Bank,24.9016269,67.0725759
Competition,Bank Alfalah,24.9038645,67.0767732
Competition,Bank Al-Habib,24.9038724,67.0768051
Competition,Summit Bank,24.9035118,67.0762955
Competition,Faysal Bank,24.9041963,67.0773334
Competition,Allied Bank Limited,24.9041424,67.0782981
Competition,Nib,24.9052737,67.0789239
Competition,Burj Bank Limited,24.905367,67.078984
Competition,Allied Bank Khayban e bukhari,24.7950133,67.065513
Competition,Faysal Bank,24.7950891,67.0655452
Competition,Habib Metro Bank,24.7940293,67.0643087
Competition,Askari Bank Ltd Bukhari Commercial Branch,24.7931424,67.0634473
Competition,Bank Alfalah,24.7961381,67.0662845
Competition,BAHL IT Bukhari Office,24.7936051,67.0646757
Competition,HBL BHUKHARI BRANCH,24.7938176,67.0640543
Competition,Bank AL Habib IT Bukhari,24.7932994,67.0644341
Competition,Bank Alfalah,24.7936019,67.0673821
Competition,BankIslami khayaban E Bukhari,24.7937998,67.0675662
Competition,Lakdawala Building,24.7922935,67.0663636
Competition,Burj Bank Limited,24.792082,67.063884
Competition,BankIslami,24.8490764,66.999295
Competition,Summit Bank Ltd,24.8490891,66.9991902
Competition,"SBP Banking Services Corporation (Bank), Head Office, Karachi",24.8479995,66.9996547
Competition,"Summit Bank Plaza, Karachi",24.8474324,67.0001855
Competition,"State Bank of Pakistan, Banking Services Corporation (Karachi Office)",24.8483178,66.9982899
Competition,Summit Bank,24.8469753,67.000115
Competition,United Bank,24.8979052,67.1938641
Competition,Habib Metro Bank,24.8926824,67.195501
Competition,HabibMetro Bank,24.8960565,67.1923553
Competition,Bank AL Habib,24.8854529,67.0799188
Competition,Bank AL Habib,24.8879307,66.9889813
Competition,BankIslami,24.973262,67.0669396
Competition,JS Bank,24.973343,67.0669282
Competition,MCB Bank Limited,24.972411,67.0646185
Competition,Bank-Al-Falah,24.9765852,67.065857
Competition,Bank AL Habib,24.8931089,67.0545042
Competition,Muslim Commercial Bank (MCB) Saira Centre,24.8237544,67.0617708
Competition,Allied Bank Limited,24.8231968,67.0623946
Competition,MCB Bank,24.824546,67.061024
Competition,Habib Metro Bank,24.8235574,67.0626153
Competition,Bank Alfalah,24.8232083,67.0630142
Competition,Silk Bank,24.8220483,67.0637635
Competition,Bank AL Habib,24.8933061,67.0640452
Competition,Bank Alfalah,24.9027621,67.0027911
Competition,Wallstreet Exchange Company DHA Branch,24.8095022,67.0628851
Competition,Standard Chartered Bank,24.8092238,67.0626327
Competition,Bank AL Habib,24.9013733,67.2018591
Competition,Dubai Islamic Bank,24.8074014,67.060733
Competition,MCB,24.8087098,67.0631953
Competition,NIB Bank,24.8089103,67.0621388
Competition,Askari Bank Ltd Shahbaz Commercial Branch,24.8075883,67.0621585
Competition,Faysal Bank Limited.Islamic Banking Branch,24.8070049,67.0604617
Competition,Burj Bank Limited,24.807196,67.0617773
Competition,Sindh Bank,24.8090238,67.0626554
Competition,Hakeem & Co Real Estate,24.8087192,67.0626265
Competition,"Allied Bank, Khayaban-e-Shahbaz Branch",24.8095123,67.0628385
Competition,UBL Bank (Shahbaz Branch),24.8094474,67.0627384
Competition,United Bank - UBL,24.8095445,67.0628593
Competition,HabibMetro Bank,24.8094929,67.0627481
Competition,HMB Bank,24.8091967,67.0624532
Competition,ABL,24.8095621,67.0627512
Competition,HBL Asset Management Limited,24.8083093,67.0624124
Competition,Habib Bank Ltd - Islamic Head Office,24.8083077,67.0623413
Competition,Sindh Bank,24.8404789,67.1273509
Competition,JS Bank (JSB),24.8405488,67.1276456
Competition,Dubai Islamic Bank (DIB),24.8405272,67.1275743
Competition,The Bank Of Punjab,24.8404998,67.1274254
Competition,United Bank Limited (UBL),24.8404487,67.1271909
Competition,MCB,24.8404671,67.1276071
Competition,Askari Bank,24.8405205,67.1275056
Competition,United Bank Limited,24.8404412,67.1273186
Competition,National Bank of Pakistan (NBP),24.8404624,67.1272631
Competition,HabibMetro Bank,24.8404313,67.1271116
Competition,Bank Alfalah,24.8404189,67.1270394
Competition,NIB Bank - Stock Exchange Br,24.8475316,66.9980648
Competition,NBP Karachi Stock Exc Br (Code 2060),24.8476177,66.9981124
Competition,JS Bank,24.8471994,66.9981855
Competition,JS Bank,24.8589787,67.0165757
Competition,HBL,24.8608438,67.0184908
Competition,Soneri Bank,24.8603051,67.0172621
Competition,Allied Bank,24.8604611,67.0178404
Competition,Summit Bank,24.8567446,67.0166938
Competition,Bank Al Habib,24.9013974,67.0295876
Competition,MCB Bank Ranchore Line Branch,24.8624628,67.0134657
Competition,"Bank Islami, Urdu Bazar Branch",24.8593701,67.0166364
Competition,Bank Alfalah,24.8600516,67.01703
Competition,United Bank - UBL,24.8602628,67.017202
Competition,Sindh Bank,24.8592488,67.0178116
Competition,"Soneri Bank, M.A Jinnah Road",24.8603333,67.0171944
Competition,Askari Commercial Bank,24.8584141,67.0158552
Competition,Soneri Bank Malir Branch,24.882807,67.1814733
Competition,Allied Bank Limited,24.8825042,67.18234
Competition,MCB Bank Limited,24.8839924,67.1785158
Competition,Sindh Bank,24.8821136,67.1830584
Competition,Dubai Islamic Bank,24.8844262,67.1762169
Competition,Soneri Bank Malir Branch,24.8826197,67.1800145
Competition,National Savings Centre,24.8829513,67.1832063
Competition,Askari Commercial Bank,24.8820751,67.1831193
Competition,Bank Alfalah,24.8835818,67.1836938
Competition,Faysal Bank,24.8450689,67.031599
Competition,Bank Alfalah,24.8477082,67.0341275
Competition,HBL Club Road Branch,24.8500766,67.0308054
Competition,Bank AL Habib,24.9023644,67.1884168
Competition,Bank AL Habib,24.904161,67.0033154
Competition,Sindh Bank,24.9136568,67.024849
Competition,MCB Bank,24.9151708,67.0244518
Competition,United Bank Limited,24.9139685,67.0233473
Competition,MCB Bank Limited,24.8440073,66.9929311
Competition,ABL Building,24.8487461,66.9959261
Competition,Soneri Bank Stock Exchange Branch,24.847562,66.9983746
Competition,Bank Alfalah,24.8492615,66.9838716
Competition,JS Bank,24.9317091,67.1003908
Competition,Burj Bank Limited,24.9309815,67.1006037
Competition,HabibMetro Bank,24.9285228,67.0965585
Competition,United Bank Limited,24.9282594,67.0960281
Competition,Askari Bank Limited,24.9279153,67.0957797
Competition,PAKISTAN CURRENCY EXCHANGE,24.9270485,67.0947159
Competition,Bank Alfalah,24.9268394,67.094143
Competition,Burj Islamic Bank ATM,24.9309575,67.1005825
Competition,Soneri Bank,24.9312405,67.1010783
Competition,Bank AL Habib,24.9049012,67.0783789
Competition,United Bank - UBL,24.8580958,67.0133137
Competition,MCB BANK,24.85784,67.0150181
Competition,JS Bank,24.9081346,67.1202981
Competition,SUMMIT BANK,24.9086446,67.1210247
Competition,Wallstreet Exchange Company Johar Branch,24.9084442,67.1207833
Competition,NAFA Islamic Saving Centre,24.9084025,67.1207296
Competition,Faysal Bank,24.9083378,67.1206337
Competition,Hbl Jouhar Branch,24.9081194,67.1202431
Competition,HBL Bank ATM Gulistan-e-Johar 0857,24.9078947,67.1198978
Competition,Dubai Islamic Bank,24.9075906,67.1195696
Competition,Bank Islami,24.9086196,67.1200202
Competition,Bank Al Habib,24.905548,67.0267168
Competition,Al Baraka Bank,24.9080708,67.1201891
Competition,Burj Bank Limited,24.9080445,67.1201481
Competition,Kashf Foundation Malir 1 Branch,24.9070236,67.1253933
Competition,Bank AL Habib,24.9056296,67.0474486
Competition,Bank AL Habib,24.9082567,67.1088268
Competition,Faysal Bank,24.823498,67.1397673
Competition,Allied Bank,24.8234849,67.1396251
Competition,The First Micro Bank Korangi Brach,24.8242326,67.1431911
Competition,Askari Bank KTS-2 Branch,24.8231624,67.1380734
Competition,Askari Bank Limited Korangi 2 No.,24.8232305,67.1380144
Competition,Bank Al Habib Korangi Branch,24.8235382,67.139896
Competition,"Soneri Bank, Korangi",24.82353,67.1397991
Competition,Sindh Bank Limited Korangi Township Branch (0378),24.8220118,67.1405156
Competition,Askari Bank Korangi Township 2,24.8231697,67.1380728
Competition,Habib Bank,24.8232314,67.1379393
Competition,esahulat,24.8419116,67.1912456
Competition,Allied Bank,24.841098,67.1913057
Competition,Apna Micro Finance Bank Ltd,24.8419066,67.1883847
Competition,Bank AL Habib,24.9085643,67.1199615
Competition,UBL Bank,24.8428894,67.1907235
Competition,HBL Landhi Branch,24.8422791,67.188845
Competition,Bank Al habib Limited,24.8407317,67.1902575
Competition,Faysal Bank,24.9258214,67.0936451
Competition,MCB Bank,24.9261609,67.0933285
Competition,Bank AL Habib,24.9099909,67.123141
Competition,HBL BANK BLOCK 3,24.92568,67.0928826
Competition,silk bank,24.9257557,67.0936007
Competition,Bank AL Habib,24.9118068,67.0884097
Competition,JS Bank,24.872057,66.9609216
Competition,MCB Bank Hawksbay Road Branch,24.8705935,66.9595034
Competition,Bank Alhabib,24.8696483,66.9552217
Competition,HBL Hawks Bay Road Branch,24.8705802,66.9592264
Competition,Telenor Bank Microfinance,24.868786,66.958896
Competition,Bank Alfalah,24.8719183,66.9607217
Competition,Askari Bank Hawksbay Road,24.8686665,66.9578357
Competition,Faysal Bank Ltd.New Truck Stand Branch 3096,24.8700272,66.9545631
Competition,First Women Bank Ltd,24.8809149,67.042215
Competition,MCB Bank,24.8820424,67.0443007
Competition,HBL - New Town Branch,24.8800907,67.0392394
Competition,United Bank - UBL,24.8797476,67.0388091
Competition,First Women Bank Ltd. (FWBL) - Gurumandir Branch,24.880914,67.0421962
Competition,Soneri Bank,24.8825002,67.0368637
Competition,Habib Bank,24.8780929,67.0445221
Competition,Bank Al Habib,24.9156261,66.9634104
Competition,Allied Bank Gulshan block 7 branch,24.9323777,67.1024628
Competition,Telenor Bank Microfinance,24.9323497,67.1014109
Competition,Sindh Bank Limited (Islamic Banking),24.9326963,67.1029184
Competition,Allied Bank,24.9321831,67.1022914
Competition,Bank Al Habib,24.9162374,67.033643
Competition,Allied Bank,24.9014192,67.2019117
Competition,"Bank AL Habib, Indus Mehran Branch",24.9014131,67.2018688
Competition,BANK AL HABIB,24.9178453,67.1312828
Competition,Habib Bank Ltd Saudabad Branch,24.9021138,67.2008375
Competition,United Bank Limited,24.903619,67.2060089
Competition,Bank AL Habib,24.9178855,67.0620345
Competition,HBL,24.8606221,67.031946
Competition,Advans Pakistan Microfinance Bank Ltd Saddar Branch,24.8611486,67.0303774
Competition,United Bank,24.859327,67.0304387
Competition,MCB Bank,24.8581051,67.0285895
Competition,National Bank of Pakistan (NBP),24.8588283,67.0283267
Competition,Summit Bank,24.8588533,67.0282817
Competition,HBL alfied branch zaib-un-nisa,24.8588731,67.0282655
Competition,Faysal Bank,24.8593842,67.0278122
Competition,Bank Al Habib,24.9209614,67.0940265
Competition,Habib Bank Limited,24.8783241,67.0665041
Competition,Bank AL Habib,24.9218143,67.0225668
Competition,Advans Pakistan Microfinance Bank Ltd.,24.9615712,67.0635697
Competition,Bank AL Habib,24.924001,67.0922885
Competition,Bank AL Habib,24.9266313,67.0651982
Competition,United Bank Limited (Paper Market Branch),24.8528765,67.0074737
Competition,UBL,24.8528703,67.0074053
Competition,Soneri Bank,24.8530321,67.0077194
Competition,faysal bank limited,24.8525256,67.0072051
Competition,NIb Nishter,24.8776047,67.0215798
Competition,HBL Garden Branch,24.8758484,67.0207499
Competition,Habib Metro Bank,24.8802188,67.0244438
Competition,Bank Alfalah,24.8767087,67.0209809
Competition,United Bank - UBL,24.876163,67.0208488
Competition,Bank AL Habib (Sub Branch Of M.A Jinnah ROAD Branch),24.8755848,67.0205742
Competition,Allied Bank Limited,24.8749475,67.020079
Competition,MCB BANK,24.8747666,67.0198618
Competition,Bankislami Garden West Branch,24.874445,67.019611
Competition,Bank AL Habib,24.9275207,67.0954176
Competition,"Faysal Bank Limited, Ibb Bahria Town",24.99277,67.314165
Competition,Samba Bank Limited,24.7869044,67.0567365
Competition,esahulat 63738,24.9159453,67.0596888
Competition,Allied Bank,24.9174057,67.0611363
Competition,Bank AL Habib,24.9280135,67.112901
Competition,United Bank - UBL,24.9158733,67.064925
Competition,Habib Bank,24.9162925,67.0600104
Competition,Bank Al Falah Ltd,24.917479,67.0614645
Competition,HabibMetro Bank,24.9177557,67.0618571
Competition,Burj Bank Limited,24.9151692,67.0583582
Competition,Dubai Islamic Bank,24.9180929,67.0622072
Competition,National Savings Centre,24.9153036,67.0646939
Competition,Askari Bank,24.9161125,67.0555268
Competition,Faysal Bank,24.9032238,67.1837763
Competition,National Bank of Pakistan (NBP),24.9030176,67.1853269
Competition,e-Sahulat,24.9014262,67.1843335
Competition,Allied Bank Sehar Commercial,24.8142936,67.069488
Competition,Askari Bank Ltd Khayaban-e-Seher Branch,24.8140939,67.0697442
Competition,NBP Islamic Banking,24.8134585,67.0705102
Competition,Allied Bank Khayaban E Shahbax,24.8149174,67.0679223
Competition,Bank Alfalah,24.8099682,67.0696785
Competition,HBL Bank,24.813918,67.0699017
Competition,Habib Metro Bank,24.8158109,67.0707309
Competition,Standard Chartered Bank,24.8274666,67.0364525
Competition,National Bank of Pakistan (NBP),24.8292541,67.035182
Competition,Askari Bank Limited,24.8300436,67.0350615
Competition,Askari Bank,24.8264445,67.0355087
Competition,MCB Bank Limited,24.8270741,67.0356426
Competition,Faysal Bank,24.8340858,67.0347683
Competition,National Bank of Pakistan (NBP),24.8749572,67.0617381
Competition,MCB Bank,24.8779044,67.0595196
Competition,MCB Bank,24.877515,67.0587235
Competition,Bank AL Habib,24.928118,67.0420927
Competition,Habib Bank,24.8754033,67.0619773
Competition,Bank Alfalah,24.8762869,67.0602874
Competition,Bank Alfalah,24.8762725,67.0601892
Competition,Burj Bank Limited,24.8763739,67.060103
Competition,Dawood Islamic Bank,24.8763981,67.0600377
Competition,Askari Bank,24.8787194,67.0655882
Competition,Habib Metropolitan Bank,24.8775202,67.0592708
Competition,HBL Bank Ltd,24.8776206,67.0589553
Competition,Habib Bank Goth Ibrahim Haidri,24.7930472,67.137012
Competition,Sindh Bank Ibrahim Hyderi Branch,24.7931098,67.1369053
Competition,MCB Bank,24.8235577,66.9801505
Competition,National Bank of Pakistan (NBP),24.8233541,66.9810576
Competition,"allied bank keamari branch, Karachi, Pakistan",24.8248993,66.9813924
Competition,United Bank Limited - Keamari Branch,24.8230817,66.978762
Competition,Habib Metro Bank,24.8225598,66.9820992
Competition,HBL Keamari Branch,24.8226244,66.982279
Competition,Standard Chartered Bank - Korangi Branch,24.8351804,67.100031
Competition,HabibMetro Bank,24.8351618,67.1002784
Competition,MCB Islamic Banking Korangi Industrial Area.-1932,24.8343203,67.1006241
Competition,MCB Bank Limited,24.8352872,67.0996857
Competition,Dubai Islamic Bank,24.8340701,67.1001229
Competition,Allied Bank Limited,24.8340227,67.1001108
Competition,Bank AL Habib,24.929835,67.0563489
Competition,Soneri Bank,24.8353773,67.1016048
Competition,KARTI Hub Station GCS,24.8339737,67.1001654
Competition,Bank Alfalah,24.8339521,67.100088
Competition,Habib Bank Limited,24.8338858,67.1001065
Competition,United Bank Limited,24.837669,67.0993934
Competition,Habib Bank,24.8849721,67.1291921
Competition,Al Baraka,24.874494,67.0729709
Competition,BankIslami,24.8376787,67.1130002
Competition,Bank AL Habib,24.9346667,67.1051413
Competition,Faysal Bank,24.8377134,67.1131708
Competition,National Bank of Pakistan (NBP),24.8381395,67.1203321
Competition,Silkbank,24.8374012,67.1160015
Competition,Askari Comercial Bank,24.8381313,67.1200249
Competition,Faysal Bank,24.8377217,67.1131513
Competition,National Bank,24.8379938,67.1202319
Competition,MCB Bank Korangi Industrial area Branch,24.8381386,67.1214232
Competition,Allied Bank Limited,25.0214516,67.1272397
Competition,Al Baraka Bank,25.0191401,67.1258798
Competition,Bank AL Habib,24.9349032,67.0779963
Competition,Sindh Bank,25.0188843,67.1260786
Competition,Faysal Bank Maymar Branch,25.0223587,67.1280732
Competition,Allied Bank Sidco Centre Branch,24.8538517,67.0265298
Competition,SAMBA Bank Ltd Head Office,24.8540793,67.0263635
Competition,MCB Sidco Center Branch,24.8541645,67.0263048
Competition,NIT-IFC,24.8545034,67.0255199
Competition,National Bank of Pakistan (NBP),24.8539055,67.0236857
Competition,National Savings Centre,24.8574641,67.0263195
Competition,National Bank Of Pakistan SHC Branch,24.8557945,67.0230352
Competition,MCB Bank,24.8092163,67.0691022
Competition,Bank Al Habib,24.9349625,67.0779484
Competition,Nafa Islamic Saving Center,24.8092704,67.0692792
Competition,HabibMetro Bank,24.8092378,67.0690817
Competition,HabibMetro Bank,24.8092025,67.0690448
Competition,Bank AL Habib,24.9357539,67.074086
Competition,Bank AL Habib,24.9394209,67.043891
Competition,Habib Metro Bank (Allama Iqbal Road branch),24.8707155,67.0616972
Competition,Allied Bank,24.8709771,67.0610304
Competition,MCB Bank,24.8710966,67.0608027
Competition,Soneri Bank,24.8711389,67.0607333
Competition,lg plaza,24.8718267,67.0602527
Competition,Askari Bank,24.8714806,67.0599287
Competition,ziraat bank,24.872298,67.0601682
Competition,Summit Bank,24.8715684,67.0595725
Competition,MCB Bank,24.8630578,67.0082438
Competition,NIB Timber Market,24.8657907,67.0068816
Competition,JS Bank,24.8664879,67.0080239
Competition,Faysal Bank Timber Market,24.8662755,67.0076008
Competition,esahulat,24.8690529,67.0081687
Competition,Dubia Islamic bank Timber Market,24.8652467,67.0056435
Competition,"Soneri Bank, Timber Market",24.86527,67.00549
Competition,UAGC Head Office,24.8651665,67.0063743
Competition,Faysal Bank Limited,24.8670774,67.0098199
Competition,United Bank Limited,24.8673007,67.0098783
Competition,Habib Metro Bank Mission Road,24.8613248,67.007478
Competition,Tha Bank Of Punjab,24.8867969,67.1632403
Competition,Bank AL Habib,24.9427381,67.0715225
Competition,Allied Bank Khadda Market Branch,24.8145066,67.0503364
Competition,MCB,24.8128536,67.0494641
Competition,National Savings Centre,24.812807,67.0502311
Competition,Faysal Bank Khada Market Branch,24.812799,67.0508933
Competition,Dubai Islamic Bank,24.8122996,67.0494531
Competition,JS Bank,24.815335,67.0499112
Competition,Habib Metro Bank DHA Branch,24.8139373,67.0488161
Competition,Habib Metropolitan Bank,24.81393,67.0487021
Competition,HabibMetro Bank,24.8139666,67.0486491
Competition,MCB Bank,24.813607,67.0484226
Competition,Faysal Bank,24.9465671,67.1012212
Competition,BankIslami,24.9484598,67.1039775
Competition,Bank AL Habib,24.94308,67.096871
Competition,Dubai Islamic Bank,24.876017,67.0581473
Competition,"Habib Bank Limited, Khalid Bin Waleed Road Branch",24.8775631,67.058788
Competition,Bank Alfalah,24.8746358,67.054255
Competition,Bank AL Habib,24.9571983,67.0609379
Competition,United Bank - UBL,24.8462136,67.0375074
Competition,Habib Metropolitan Bank Cantt Station Branch,24.8461148,67.0375241
Competition,Habib Metro Bank,24.8461125,67.0375677
Competition,HBL,24.8457333,67.0377791
Competition,Habib Bank Limited,24.8444468,67.0407836
Competition,Bank AL Habib,24.9581023,67.0764541
Competition,United Bank - UBL,24.9774127,67.0871158
Competition,Sindh Bank,24.9775644,67.0866602
Competition,Allied Bank Ltd,24.977827,67.086633
Competition,Habib Metro Bank,24.9773969,67.086908
Competition,Allied Bank,24.9777422,67.0866568
Competition,Soneri Bank,24.9754989,67.0867507
Competition,Bank AL Habib,24.9596845,67.0619916
Competition,Bank Alfallah Cloth Market Branch,24.8507316,66.9981728
Competition,esahulat 61748,24.8657256,67.0139615
Competition,Askari Bank Limited,24.8617149,67.0135808
Competition,Bank AL Falah,24.8614622,67.0099388
Competition,Habib Bank Malir Halt Branch,24.8614622,67.0099388
Competition,HBL,24.8614622,67.0099388
Competition,UPPER GIZRI,24.8614622,67.0099388
Competition,OGDCL,24.8614622,67.0099388
Competition,MCB Bank,24.9369052,67.0766971
Competition,Askari Bank,24.935851,67.0752698
Competition,United Bank - UBL,24.9359012,67.0771365
Competition,UBL Bank,24.9358849,67.0772939
Competition,Bank AL Habib,24.9688781,67.0662834
Competition,Bank AL Habib,24.9707905,67.0671952
Competition,Faysal Bank,24.9380678,67.0768876
Competition,Sindh Bank,24.9348305,67.0780798
Competition,Allied Bank,24.9338507,67.0790974
Competition,HBL,24.9337165,67.079236
Competition,HBL Bank,24.9337471,67.0792615
Competition,Summit Bank,24.9366902,67.0778096
Competition,Habib Metro Bank,24.9370248,67.0767005
Competition,Bank Alfalah,24.9361014,67.074483
Competition,Bank Alfaha water pump Br.,24.9361004,67.074435
Competition,Dubai Islamic Bank,24.9388102,67.0789089
Competition,Bank AL Habib,24.9724518,67.0651767
Competition,Askari Bank Shershah Branch,24.8884201,66.9876716
Competition,MCB Bank Limited,24.8885241,66.9873869
Competition,Dubai Islami Bank Pakistan,24.8877559,66.9886741
Competition,Bank Alfalah,24.8883811,66.9880691
Competition,Sindh Bank,24.8876087,66.9895904
Competition,National Savings Centre,24.8900004,66.9852422
Competition,Summit Bank,24.88781,66.99244
Competition,Summit Bank LIMITED,24.8856369,66.9917194
Competition,Bank AL Falah Islamic Limited,24.8855438,66.9917563
Competition,United Bank - UBL,24.8900415,66.9846719
Competition,Soneri Bank Mustaqeem Branch,24.8642515,67.0746995
Competition,Silk Bank,24.8643258,67.0747957
Competition,Al Barka Bank,24.8642019,67.0747405
Competition,Dubai Islamic Bank Al Tijarah Branch,24.8642691,67.0748534
Competition,Faysal Bank,24.8279203,67.0550249
Competition,Standard Chartered Saadiq Bank,24.8280053,67.0543597
Competition,Allied Bank Limited,24.8295838,67.0510247
Competition,United Bank - UBL,24.8288012,67.050325
Competition,Care Takers Builders & Contractors,24.8295523,67.0590842
Competition,Habib Bank Limited (HBL),24.8274605,67.055219
Competition,Bank Islami,24.8278891,67.0544528
Competition,UBL Ameen Head Office,24.8280935,67.0558295
Competition,HabibMetro Bank,24.8288411,67.0502523
Competition,Bank AL Habib,24.977398,67.0866261
Competition,UBL - Firdous Colony Branch,24.9001967,67.0306814
Competition,BankIslami,24.8988893,67.0306198
Competition,Summit Bank,24.8981035,67.0303348
Competition,Dubai Islamic Bank,24.8996697,67.0301528
Competition,Faysal Bank,24.8974308,67.0304113
Competition,"Habib Bank, Rizvia Society Branch",24.9011115,67.0299663
Competition,Allied Bank Limited,24.9012066,67.0316451
Competition,Habib Bank Limited,24.9012121,67.0317802
Competition,National Bank of Pakistan (NBP),24.9022671,67.030017
Competition,Allied Bank Limited,24.8943878,67.0309191
Competition,"Industrial and Commercial Bank of China Limited, Karachi Branch",24.823773,67.035943
Competition,BankIslami,24.9440902,66.9341474
Competition,UBL Bank,24.9441668,66.9340958
Competition,Allied Bank,24.9433995,66.9345136
Competition,Nbp Pnad Maripur,24.9433058,66.9331513
Competition,Habib Bank Limited,24.9455187,66.9359046
Competition,Bank Al Habib ATM,24.9455232,66.9364213
Competition,BankIslami,24.9062725,67.0814615
Competition,Bank Al Habib,25.0032371,67.1015535
Competition,Bank Islami Pakistan Limited,24.9072546,67.0818017
Competition,MCB Islamic Bank,24.9071045,67.0815936
Competition,"Bank Al Islami, University Road Branche",24.9071457,67.0815918
Competition,Bank Alfalah,24.9061963,67.0802752
Competition,National Savings Centre,24.9074652,67.0819949
Competition,Al Baraka Islamic Bank,24.907747,67.0822511
Competition,Silkbank,24.9050217,67.0795829
Competition,United Bank - UBL,24.8668817,67.0523196
Competition,Standard Chartered Bank,24.8648331,67.0553527
Competition,First Islamic Modaraba,24.8637461,67.0542008
Competition,Al Baraka Bank,24.8677935,67.0525462
Competition,HabibMetro Bank,24.8682693,67.0515668
Competition,Habbib Bank Limited-Community Centre Branch,24.8691483,67.0503454
Competition,HBL Bank,24.8690433,67.05014
Competition,Samba Bank,24.86458,67.0544467
Competition,Allied Bank Limited,24.8641912,67.0549541
Competition,Bank Alfalah,24.8669954,67.056687
Competition,MCB Bank Limited,24.9345153,67.0723246
Competition,"Soneri Bank, Mustaqeem Islamic Banking, Water Pump Branch",24.93386,67.07271
Competition,Allied Bank Limited Aisha Manzil Branch,24.93234,67.0707882
Competition,Askari Bank & ATM,24.9327676,67.0701571
Competition,Bank Islami & ATM,24.9326069,67.0699802
Competition,Standard charted,24.9332868,67.071628
Competition,United Bank - UBL,24.9324753,67.0709028
Competition,SME Bank,24.931798,67.070066
Competition,Bank AL Habib,25.0192452,67.1256294
Meezan,26th Street Branch,24.800219,67.046733
Meezan,Abdullah Haroon Road Branch,24.863836,67.024539
Meezan,Abul Hassan Isphahani Road Branch,24.940162,67.099395
Meezan,Al Tijarah Centre Branch,24.864354,67.074668
Meezan,Al-Hilal Society Branch,24.89213,67.063035
Meezan,Al-Meezan Investment Nazimabad Branch,24.941879,67.049236
Meezan,Alamgir Road Branch,24.879378,67.071735
Meezan,Allama Iqbal Road Branch,24.870961,67.061901
Meezan,Army Officers Housing Society,24.894606,67.085202
Meezan,Artistic Milliners,24.878486,67.273788
Meezan,"Atlas Engineering, Karachi",24.856935,67.230628
Meezan,Azizabad Branch,24.924884,67.066979
Meezan,Baber Market Branch,24.843963,67.191855
Meezan,Bahadurabad Branch,24.879959,67.065219
Meezan,Bahria Town (Pvt) Ltd.,24.811631,67.029349
Meezan,Bahria Town Branch,24.992636,67.313849
Meezan,Bait Ul Mukarram Branch,24.905483,67.082077
Meezan,Baitus Salam Branch,24.827551,67.054821
Meezan,Baldia Town No 09 Branch,24.939317,66.959778
Meezan,Baradari North Karachi Branch,24.977969,67.055736
Meezan,Barkat-e-Hyderi Branch,24.940035,67.045936
Meezan,Beaumont Plaza Branch,24.844912,67.024869
Meezan,Bhittai Colony Korangi Branch,24.818186,67.105836
Meezan,Bilawal Chowk Branch,24.811156,67.017392
Meezan,Bin Qasim National Highway Branch,24.854299,67.224274
Meezan,Block - 1 Gulistan-e-Jauher Branch,24.924267,67.115471
Meezan,Block 4 Clifton Branch,24.809885,67.032038
Meezan,Block A - North Nazimabad Branch,24.927211,67.033135
Meezan,Block-18 Gulistan-e-Jauhar Branch,24.909415,67.122183
Meezan,Block-3A Kamran Chowrangi Branch,24.919876,67.133537
Meezan,Block-E North Nazimabad Branch,24.94002,67.045947
Meezan,Boat Basin Branch,24.827037,67.030106
Meezan,Bohrapir Branch,24.861876,67.014043
Meezan,Bombay Bazar Branch,24.853733,67.001752
Meezan,Boulton Market Branch,24.850579,67.000412
Meezan,Buffer Zone Branch,24.957155,67.061542
Meezan,Cattle Colony Branch,24.829657,67.259945
Meezan,Central Plaza Shopping Mall,24.864431,67.022822
Meezan,Clifton Branch,24.829923,67.03413
Meezan,Clifton Forum,24.827212,67.037798
Meezan,Cloth Market Branch,24.851341,66.998087
Meezan,Dalton Market Branch,24.81506,67.049696
Meezan,Darakhshan Society Malir Branch,24.88325,67.180611
Meezan,DHA Phase I Branch,24.836928,67.06894
Meezan,DHA Phase II Extention Branch,24.832812,67.072216
Meezan,DHA Phase IV Branch,24.825139,67.060373
Meezan,DHA Phase VII Commercial Avenue Branch,24.814375,67.069418
Meezan,Dhoraji Branch,24.885731,67.079233
Meezan,Dolmen Mall Tariq Road,24.876843,67.062888
Meezan,Drigh Road Cantt Bazar Branch,24.885253,67.131076
Meezan,F.B Area Branch,24.934969,67.072917
Meezan,F.B Industrial Area Branch,24.957801,67.076423
Meezan,FTC Branch,24.857871,67.051735
Meezan,Garden West Branch,24.877446,67.021466
Meezan,Generation\s School,24.928735,67.040754
Meezan,Generations\ School - South Campus,24.902419,67.005699
Meezan,Gizri Branch,24.827828,67.042475
Meezan,Gole Market Nazimabad Branch,24.915088,67.026252
Meezan,Gulbahar Branch,24.898688,67.030658
Meezan,Gulbai (HO) Branch,24.881021,66.973294
Meezan,Gulberg Branch,24.942864,67.071768
Meezan,Gulistan-e-Jauher Branch,24.914076,67.127268
Meezan,Gulshan -e- Iqbal Block 5 Branch,24.921201,67.093886
Meezan,Gulshan Chowrangi Branch,24.929067,67.097127
Meezan,Gulshan-e-Hadeed Branch,24.865643,67.353231
Meezan,Gulshan-e-Iqbal Block 2 Branch,24.922866,67.088973
Meezan,Gulshan-e-Iqbal Block 6 Branch,24.923796,67.092534
Meezan,Gulshan-e-Iqbal Branch,24.903813,67.076701
Meezan,Gulshan-e-Maymar Branch,25.021609,67.127457
Meezan,Gulzar-e-Hijri Branch,24.948339,67.103413
Meezan,Haji Camp,24.83935,67.015007
Meezan,Hamdard Hospital,24.907626,67.026169
Meezan,Hub River Road Branch,24.944096,66.934159
Meezan,Hussainabad Branch,24.916673,67.060227
Meezan,Hyderi Supermarket,24.929205,67.039973
Meezan,I.I. Chundrigar Road Branch,24.852469,66.995584
Meezan,Indus Hospital,24.816868,67.111787
Meezan,Indus Mehran Cooperative Housing Society Bran,24.901732,67.20246
Meezan,Jama Mall,24.85858,67.014251
Meezan,Jama-e-Millia Branch,24.875896,67.179095
Meezan,Jamia Ashraf ul Madaris,24.9132274,67.1373921
Meezan,Jamshed Road Branch,24.882191,67.051843
Meezan,Jodia Bazar Branch,24.855089,67.001209
Meezan,Joffa Towers Branch,24.910206,67.086282
Meezan,Jubilee Market Branch,24.865291,67.019278
Meezan,K.A.E.C.H.S Branch,24.859122,67.08227
Meezan,Karachi Boat Club,24.841719,66.998445
Meezan,Karachi Cantt. Branch,24.846944,67.037064
Meezan,Katchi Gali Branch,24.853678,67.005149
Meezan,KDLB Building Branch,24.849468,66.990968
Meezan,Kemari Branch,24.824255,66.980314
Meezan,Khalid Bin Waleed Road Branch,24.872873,67.055842
Meezan,Kharadar Branch,24.852593,66.995727
Meezan,Khatija Market Block,24.948498,67.043251
Meezan,Khayaban-e-Bukhari Branch,24.79516,67.065026
Meezan,Khayaban-e-Ittehad Branch,24.781239,67.057003
Meezan,Khayaban-e-Rahat Branch,24.809367,67.06914
Meezan,Khayaban-e-Sehar Branch,24.808866,67.063337
Meezan,Khayaban-e-Shamsheer Branch,24.801362,67.036712
Meezan,KORANGI DAR-UL-ULOOM,24.845469,67.165842
Meezan,Korangi Darul Uloom Branch,24.844316,67.167253
Meezan,Korangi II Branch,24.823871,67.141197
Meezan,Korangi Industrial Area Branch,24.835743,67.102487
Meezan,Korangi Industrial Area II,24.841025,67.129574
Meezan,Lasbella Chowk Branch,24.88679,67.032456
Meezan,Lea Market Branch,24.859253,67.000718
Meezan,Liaquat Market Malir Branch,24.894152,67.195481
Meezan,Liaquatabad Branch,24.905248,67.047298
Meezan,Liberty Mills,24.915931,67.007284
Meezan,Light House Branch,24.856377,67.010361
Meezan,M.A. Jinnah Road Branch,24.852139,67.002543
Meezan,Mahmoodabad Branch,24.852132,67.068939
Meezan,Malir Cantt Branch,24.944583,67.20311
Meezan,Marriott Hotel Branch,24.846566,67.031331
Meezan,Maskan Chowrangi Branch,24.934736,67.10525
Meezan,Metroville Branch,24.919756,67.002359
Meezan,Model Colony Branch,24.903183,67.184287
Meezan,Muhammad Ali Society Branch,24.87477,67.088023
Meezan,Nadir House Branch,24.849183,67.000375
Meezan,Naheed Super Store,24.877938,67.068655
Meezan,Nanakwara Branch,24.85703,67.004145
Meezan,Nazimabad No. 3 Branch,24.914052,67.030584
Meezan,New Challi Branch,24.852798,67.007558
Meezan,New Town Branch,24.879997,67.040453
Meezan,New Truck Stand Branch,24.870919,66.958552
Meezan,North Karachi Industrial Area Branch,24.977438,67.08756
Meezan,North Napier Road Branch,24.855812,67.004294
Meezan,North Nazimabad Block-M Branch,24.946946,67.052967
Meezan,North Nazimabad Branch,24.928142,67.04228
Meezan,Nursery Branch,24.861042,67.067188
Meezan,Orangi Town Branch,24.941256,67.010583
Meezan,P&O Plaza Branch,24.849293,67.00419
Meezan,PAF Museum,24.870498,67.095233
Meezan,Pakistan Chowk Branch,24.854756,67.01223
Meezan,Panorama Center Branch,24.855235,67.029998
Meezan,Paposh Nagar Branch,24.921827,67.022788
Meezan,PIB Colony Branch,24.893781,67.055229
Meezan,Plaza Square Branch,24.864129,67.022101
Meezan,PNS Karsaz,24.883568,67.096617
Meezan,PNSC Branch,24.844739,66.994967
Meezan,Power House Branch,24.97317,67.065992
Meezan,Rashid Minhas Road Branch,24.908413,67.108616
Meezan,Razi Road Branch,24.861389,67.06595
Meezan,Regal Chowk Branch,24.860706,67.023515
Meezan,S.I.T.E Branch,24.910356,67.010914
Meezan,Saba Avenue Branch,24.786366,67.059256
Meezan,Saddar Branch,24.858762,67.02964
Meezan,Saeedabad Baldia Town Branch,24.915558,66.963448
Meezan,Safoora Chowk Branch,24.938128,67.151756
Meezan,Shadman Town Branch,24.959882,67.062081
Meezan,Shah Faisal Colony Branch,24.885419,67.167175
Meezan,Shaheed-e-Millat Road Branch,24.876853,67.070107
Meezan,Shaheen Complex Branch,24.850611,67.019346
Meezan,Shahrah-e-Faisal Branch,24.862919,67.073434
Meezan,Shahrah-e-Orangi Branch,24.941199,66.99946
Meezan,Shahrah-e-Quaideen Branch,24.867172,67.052
Meezan,Shamsi Society Branch,24.884629,67.167977
Meezan,Sharafabad branch,24.88576,67.062028
Meezan,SHERATON HOTEL,24.846684,67.026565
Meezan,Shershah branch,24.888175,66.988518
Meezan,Shireen Jinnah Colony Branch,24.817866,67.002106
Meezan,Sidco Centre Branch,24.853889,67.026493
Meezan,Sir Syed Road Branch,24.877151,67.056576
Meezan,SITEII Super Highway Branch,25.006084,67.104256
Meezan,Soldier Bazar Branch,24.876505,67.033054
Meezan,Soorty Enterprises,24.837081,67.116723
Meezan,South Asia Pakistan Terminal,24.806935,66.983235
Meezan,Stock Exchange Branch,24.847498,66.998131
Meezan,Super Highway Branch,24.962326,67.10927
Meezan,Tahir Villa Chowrangi Branch,24.929857,67.0564
Meezan,Tariq Road Branch,24.869475,67.058252
Meezan,Textile Avenue Branch,24.906397,66.996611
Meezan,Timber Market Branch,24.865486,67.005811
Meezan,UFONE Center,24.848034,67.005199
Meezan,Ufone Contact Center,24.848034,67.005199
Meezan,United Medical & Dental College,24.793681,67.140397
Meezan,University Road Branch,24.928934,67.114769
Meezan,UP More Branch,24.969503,67.066257
Meezan,Urdu Bazar Branch,24.85935,67.016638
Meezan,Validus Engineering Karachi,24.903473,67.00224
Meezan,Water Pump Branch,24.93474,67.077659
Meezan,West Wharf Road Branch,24.8494,66.986368
Gated Community,KDA Overseas Bungalows,24.9127653,67.1064702
Gated Community,Askari Phase 4,24.9014127,67.1165809
Gated Community,National Stadium Colony,24.8955506,67.0839331
Gated Community,KDA Officers Society,24.9028663,67.0936133
Gated Community,Majeed SRE,24.8930482,67.1011678
Gated Community,NHS Karsaz,24.8923729,67.1017817
Gated Community,Falcon Complex Karachi,24.8659438,67.0846709
Gated Community,Malir Cantonment,24.9462804,67.1858042
Gated Community,Navy Housing Society,24.8211194,67.0366584
Gated Community,Navy Housing Scheme,24.8231422,67.0380319
Gated Community,Darul Salaam Society,24.8214348,67.1085049
Gated Community,Long Life Bungalows,24.9101893,67.1097502
Gated Community,Saadabad Society,24.9326447,67.1342888
Gated Community,Old Raavians Housing Society,24.9396805,67.1431535
Gated Community,Rizvia Society,24.9490956,67.1489954
Gated Community,Al-Muslim Society,24.9463187,67.147276
Gated Community,National Housing Society,24.9551375,67.150431
Gated Community,Steel Town Karachi,24.869774,67.3291083
Gated Community,Gulshan-e-Hadeed,24.8773682,67.3151336
Gated Community,Parsi Colony,24.8468615,67.0617628
Gated Community,Askari 1,24.8345964,67.0364927
Gated Community,Askari 2,24.8466938,67.0392367
Gated Community,Askari 3,24.8500409,67.039753
Gated Community,Sindh Baloch Cooperative Housing Society,24.912877,67.1345974
Gated Community,Masrur Colony,24.873477,66.9176916
Gated Community,NORE 1,24.8414059,67.0022843
Gated Community,NORE 3,24.8512798,67.0506093
Gated Community,NORE 2,24.8558681,67.0433431
Gated Community,PCSIR Society,24.9631541,67.1273125
Gated Community,Karachi University Housing Society,24.9593728,67.1196453
Gated Community,Kaneez Fatima Society,24.9593726,67.1130792
Gated Community,Bahria Town,25.0141904,67.2725908
Gated Community,DHA City,25.0032063,67.4415981
